City_ID,City,Lat,Lng,Max Temp,Humidity,Cloudiness,Wind Speed,Country,Date
0,anadyr,64.75,177.4833,-7.72,78,0,6.71,RU,1730846565
1,khandyga,62.6667,135.6,-24.67,99,100,1.1,RU,1730846566
2,waitangi,-43.9535,-176.5597,12.82,91,97,3.2,NZ,1730846567
3,saint croix,17.7397,-64.7388,27.2,84,75,4.12,VI,1730846578
4,bilibino,68.0546,166.4372,-22.57,99,100,0.49,RU,1730846579
5,phongsali,21.6833,102.1058,14.72,98,93,0.32,LA,1730846580
6,sal rei,16.1833,-22.9167,25.45,79,0,7.77,CV,1730846582
7,bodaybo,57.8506,114.1933,-6.36,96,100,1.21,RU,1730846583
8,kodiak,57.79,-152.4072,6.73,70,100,5.66,US,1730846602
9,stanley,54.868,-1.6985,8.62,92,75,0.0,GB,1730846603
10,port-aux-francais,-49.35,70.2167,2.83,91,100,6.87,TF,1730846604
11,bethel,41.3712,-73.414,18.52,74,50,0.89,US,1730846605
12,udachny,66.4167,112.4,-8.38,96,100,2.45,RU,1730846606
13,constantia,44.1833,28.65,0.39,48,1,2.14,RO,1730846607
14,edinburgh of the seven seas,-37.0676,-12.3116,14.53,81,100,3.42,SH,1730846609
15,naberezhnyye chelny,55.7561,52.4289,-6.51,91,98,4.95,RU,1730846610
16,ust-nera,64.5667,143.2,-27.05,99,92,1.22,RU,1730846611
17,albany,42.6001,-73.9662,19.23,71,92,2.12,US,1730846612
18,thompson,55.7435,-97.8558,0.09,74,100,4.63,CA,1730846613
19,utrik,11.2278,169.8474,28.46,81,69,9.32,MH,1730846614
20,coquimbo,-29.9533,-71.3436,18.88,57,0,7.2,CL,1730846596
21,murzuq,25.9155,13.9184,17.52,46,0,3.47,LY,1730846617
22,acapulco de juarez,16.8634,-99.8901,29.9,79,40,2.57,MX,1730846618
23,port saint john's,-31.6229,29.5448,16.01,84,99,6.16,ZA,1730846619
24,wanning,18.8003,110.3967,22.44,89,85,4.26,CN,1730846620
25,atafu village,-8.5421,-172.5159,27.95,63,36,4.41,TK,1730846621
26,blackmans bay,-43.0167,147.3167,16.96,63,97,0.45,AU,1730846622
27,glen innes,-29.7333,151.7333,26.25,30,3,3.08,AU,1730846623
28,port augusta,-32.5,137.7667,24.3,50,69,6.78,AU,1730846624
29,ushuaia,-54.8,-68.3,3.81,87,75,6.69,AR,1730846331
30,fale old settlement,-9.3852,-171.2468,28.39,66,24,5.2,TK,1730846627
31,kalianget,-7.05,113.9333,28.43,73,80,5.64,ID,1730846629
32,taoudenni,22.6783,-3.9836,28.24,15,100,4.68,ML,1730846630
33,jinjiang,24.8198,118.5741,18.37,65,2,6.57,CN,1730846631
34,geraldton,-28.7667,114.6,16.23,82,75,2.06,AU,1730846632
35,st. john's,47.5649,-52.7093,2.86,78,75,2.06,CA,1730846633
36,alice springs,-23.7,133.8833,27.75,44,20,4.12,AU,1730846635
37,mount gambier,-37.8333,140.7667,20.22,65,100,4.72,AU,1730846636
38,georgetown,5.4112,100.3354,25.96,93,20,1.54,MY,1730846637
39,ivolginsk,51.7492,107.2837,-10.19,92,91,0.0,RU,1730846638
40,adamstown,-25.066,-130.1015,22.47,80,100,3.54,PN,1730846639
41,ouadda,8.0777,22.4007,19.96,55,8,1.68,CF,1730846640
42,badger,64.8,-147.5333,-1.67,74,75,3.09,US,1730846641
43,lerwick,60.1545,-1.1494,10.16,92,100,4.98,GB,1730846642
44,grytviken,-54.2811,-36.5092,1.84,97,96,5.73,GS,1730846643
45,sola,-13.8833,167.55,25.92,76,100,4.36,VU,1730846645
46,merritt,50.1123,-120.7942,5.88,60,60,0.72,CA,1730846646
47,summerland,49.5998,-119.6691,9.1,35,20,6.69,CA,1730846648
48,klyuchi,52.2667,79.1667,-1.13,71,70,3.36,RU,1730846649
49,savanna-la-mar,18.219,-78.1332,24.96,90,100,6.65,JM,1730846652
50,gaspe,48.8334,-64.4819,4.12,93,100,1.54,CA,1730846653
51,yellowknife,62.456,-114.3525,-3.1,100,100,2.57,CA,1730846654
52,les anglais,18.3054,-74.2197,24.17,89,100,4.42,HT,1730846655
53,lumajang,-8.1335,113.2248,24.52,87,97,0.65,ID,1730846656
54,margaret river,-33.95,115.0667,13.91,61,90,6.95,AU,1730846657
55,vacha,55.8008,42.7706,-3.98,92,100,3.36,RU,1730846658
56,puerto ayora,-0.7393,-90.3518,20.86,69,69,4.45,EC,1730846659
57,narasannapeta,18.4167,84.05,22.2,80,14,2.21,IN,1730846660
58,bandon,51.7469,-8.7425,14.77,99,98,2.24,IE,1730846662
59,jamestown,42.097,-79.2353,22.8,49,0,6.69,US,1730846663
60,fort abbas,29.1925,72.8536,25.03,27,0,2.09,PK,1730846664
61,ilulissat,69.2167,-51.1,-9.99,73,98,0.51,GL,1730846619
62,petawawa,45.9001,-77.3328,12.77,100,100,2.06,CA,1730846666
63,grootfontein,-19.5667,18.1167,24.76,23,14,1.54,NA,1730846667
64,hawaiian paradise park,19.5933,-154.9731,27.73,82,40,3.09,US,1730846455
65,kristiansund,63.1115,7.732,9.51,76,75,1.03,NO,1730846671
66,idri,27.5,13.2667,17.47,49,0,3.44,LY,1730846672
67,kupang,-10.1667,123.5833,27.32,89,20,0.51,ID,1730846673
68,kavieng,-2.5744,150.7967,29.16,71,43,3.12,PG,1730846674
69,puerto natales,-51.7236,-72.4875,5.25,87,75,0.0,CL,1730846676
70,kununurra,-15.7667,128.7333,28.99,79,41,4.12,AU,1730846677
71,vila franca do campo,37.7167,-25.4333,21.23,99,95,11.36,PT,1730846678
72,punta arenas,-53.15,-70.9167,8.06,61,75,5.14,CL,1730846680
73,anna regina,7.2644,-58.5077,27.56,77,97,4.06,GY,1730846681
74,el abiodh sidi cheikh,32.893,0.5484,17.89,35,0,2.65,DZ,1730846682
75,luau,-10.7073,22.2247,18.34,93,86,1.3,AO,1730846683
76,tarko-sale,64.9225,77.785,-7.26,89,98,10.61,RU,1730846684
77,east london,-33.0153,27.9116,15.61,63,94,4.83,ZA,1730846685
78,maracacume,-2.0428,-45.9592,25.27,74,100,2.65,BR,1730846686
79,camana,-16.6228,-72.7111,19.03,81,62,3.15,PE,1730846687
80,kargopol',61.5071,38.9456,-4.62,96,100,1.72,RU,1730846689
81,west island,-12.1568,96.8225,25.99,89,100,7.2,CC,1730846690
82,ullal,12.8,74.85,24.53,94,75,2.06,IN,1730846691
83,ratnagiri,16.9833,73.3,24.25,60,0,2.7,IN,1730846692
84,zhezqazghan,47.7833,67.7667,7.16,95,72,9.24,KZ,1730846693
85,isafjordur,66.0755,-23.124,6.26,89,100,5.21,IS,1730846694
86,bang saphan,11.2126,99.5117,23.84,94,90,1.96,TH,1730846697
87,shenjiamen,29.9576,122.298,15.56,63,0,7.12,CN,1730846698
88,kuta,-8.7233,115.1723,25.97,100,20,2.57,ID,1730846699
89,kailua-kona,19.6406,-155.9956,28.98,84,40,6.69,US,1730846453
90,san luis de la loma,17.2706,-100.8939,28.13,78,15,2.12,MX,1730846701
91,iqaluit,63.7506,-68.5145,-6.15,67,100,5.14,CA,1730846702
92,kushiro,42.975,144.3747,1.53,80,75,3.6,JP,1730846703
93,ancud,-41.8697,-73.8203,10.57,90,100,7.06,CL,1730846704
94,kirensk,57.7853,108.1119,-4.17,90,50,3.17,RU,1730846706
95,prado,-17.3411,-39.2208,23.36,88,96,2.73,BR,1730846707
96,dryden,49.7833,-92.7503,0.16,100,100,2.57,CA,1730846708
97,el calafate,-50.3408,-72.2768,6.52,64,49,8.35,AR,1730846709
98,fort bragg,35.139,-79.006,23.91,65,40,2.06,US,1730846710
99,cabo san lucas,22.8909,-109.9124,28.17,47,0,4.12,MX,1730846123
100,wailua homesteads,22.0669,-159.378,27.44,85,20,4.12,US,1730846712
101,passo fundo,-28.2628,-52.4067,25.14,73,40,5.14,BR,1730846713
102,benjamin constant,-4.3831,-70.0311,30.03,74,20,0.51,BR,1730846715
103,hozat,39.1083,39.2213,0.57,61,0,2.64,TR,1730846716
104,leava,-14.3,-178.1667,27.43,73,100,3.25,WF,1730846717
105,forster,-32.1667,152.5167,22.43,88,82,1.72,AU,1730846718
106,tabasco,18.0,-92.6667,33.06,69,40,0.0,MX,1730846719
107,taiynsha,53.8478,69.7639,-1.72,67,100,5.54,KZ,1730846720
108,new norfolk,-42.7826,147.0587,17.62,39,100,2.34,AU,1730846721
109,roccella ionica,38.322,16.4009,16.27,81,63,2.23,IT,1730846722
110,port elizabeth,-33.918,25.5701,13.16,96,20,2.06,ZA,1730846724
111,selfoss,63.9331,-20.9971,9.47,91,97,10.93,IS,1730846725
112,weno,7.4515,151.8468,29.97,79,20,3.6,FM,1730846726
113,vorkuta,67.5,64.0,-3.63,95,100,6.74,RU,1730846727
114,thames,-37.1333,175.5333,19.06,65,100,0.88,NZ,1730846728
115,shingu,33.7333,135.9833,16.13,83,6,2.68,JP,1730846729
116,san patricio,28.017,-97.5169,26.97,55,68,3.02,US,1730846730
117,eureka,40.8021,-124.1637,15.67,74,43,3.58,US,1730846731
118,torghay,49.6339,63.4981,3.56,97,100,9.35,KZ,1730846733
119,avarua,-21.2078,-159.775,25.03,78,100,1.54,CK,1730846734
120,kapuskasing,49.4169,-82.4331,6.05,93,100,2.06,CA,1730846735
121,uturoa,-16.7333,-151.4333,27.12,81,76,4.6,PF,1730846736
122,minas de marcona,-15.2119,-75.1103,15.43,76,9,6.96,PE,1730846738
123,oppdal,62.5943,9.6912,2.61,85,54,1.69,NO,1730846739
124,bathsheba,13.2167,-59.5167,29.34,79,40,3.09,BB,1730846741
125,cajabamba,-7.6167,-78.05,13.91,83,100,2.21,PE,1730846742
126,tralee,52.2704,-9.7026,13.95,98,100,1.66,IE,1730846743
127,carnarvon,-24.8667,113.6333,19.65,69,1,9.5,AU,1730846744
128,ghat,24.9647,10.1728,18.68,34,59,1.8,LY,1730846745
129,geneina,13.45,22.45,22.01,27,29,7.13,SD,1730846746
130,heber springs,35.4915,-92.0313,16.17,91,100,1.75,US,1730846747
131,harar,9.3094,42.1258,14.44,68,57,0.56,ET,1730846748
132,malango,-2.9627,119.9001,21.42,81,92,0.18,ID,1730846750
133,tolanaro,-25.0319,46.9987,24.04,83,40,9.26,MG,1730846751
134,holualoa,19.6228,-155.9522,26.91,89,40,6.69,US,1730846753
135,santa catalina,9.3337,122.8637,26.3,85,82,1.71,PH,1730846754
136,lebedyan',53.0194,39.1664,-3.46,95,66,2.42,RU,1730846755
137,birzebbuga,35.8258,14.5269,17.38,82,20,0.51,MT,1730846756
138,vilyuchinsk,52.9306,158.4028,-2.85,71,84,3.36,RU,1730846757
139,qaqortoq,60.7167,-46.0333,-12.56,84,4,2.86,GL,1730846759
140,papatowai,-46.5619,169.4708,16.09,58,9,3.56,NZ,1730846760
141,palmer,42.1584,-72.3287,19.73,62,73,0.45,US,1730846761
142,mejit,10.2753,170.8646,28.59,81,100,8.99,MH,1730846762
143,polyarnyy,69.1989,33.4478,4.05,79,87,11.78,RU,1730846764
144,warrnambool,-38.3833,142.4833,24.17,42,96,7.53,AU,1730846566
145,klerksdorp,-26.8521,26.6667,10.41,35,1,2.69,ZA,1730846766
146,miquelon,47.0975,-56.3814,7.48,79,100,8.11,PM,1730846768
147,plettenberg bay,-34.0527,23.3716,13.01,86,75,2.84,ZA,1730846769
148,itaituba,-4.2761,-55.9836,26.12,78,90,1.29,BR,1730846770
149,cadale,2.7603,46.3222,25.97,87,32,5.34,SO,1730846771
150,lata,40.1629,-8.3327,15.95,93,100,1.17,PT,1730846772
151,chehalis,46.662,-122.964,12.17,76,75,0.45,US,1730846484
152,quellon,-43.1167,-73.6167,8.96,82,95,5.54,CL,1730846774
153,lihue,21.9789,-159.3672,27.77,82,20,4.12,US,1730846775
154,hamilton,39.1834,-84.5333,25.43,60,75,8.23,US,1730846715
155,pisco,-13.7,-76.2167,21.03,68,0,8.23,PE,1730846778
156,beruniy,41.6911,60.7525,4.98,60,0,6.17,UZ,1730846779
157,san antonio de pale,-1.4014,5.6325,25.59,83,93,3.95,GQ,1730846780
158,ningbo,29.8782,121.5495,11.99,76,20,3.0,CN,1730846781
159,port mathurin,-19.6833,63.4167,23.84,82,65,8.15,MU,1730846782
160,nishinoomote,30.7333,131.0,19.84,62,2,11.64,JP,1730846783
161,codrington,-38.2667,141.9667,24.23,39,100,8.86,AU,1730846784
162,paracuru,-3.41,-39.0306,25.98,80,87,6.5,BR,1730846785
163,karratha,-20.7377,116.8463,31.85,20,2,4.09,AU,1730846787
164,dakhla,23.6848,-15.958,19.85,89,1,6.0,EH,1730846788
165,nar'yan-mar,67.6713,53.087,-4.41,94,51,4.56,RU,1730846789
166,agat village,13.3886,144.6585,29.64,91,20,3.6,GU,1730846790
167,vernon,50.2581,-119.2691,8.58,38,46,1.34,CA,1730846651
168,fuglafjordur,62.244,-6.814,8.65,92,39,6.51,FO,1730846792
169,longyearbyen,78.2186,15.6401,-2.09,100,100,3.6,SJ,1730846793
170,muisne,0.6,-80.0333,23.6,79,93,3.14,EC,1730846794
171,barakani,-12.1356,44.4317,26.32,85,7,4.08,KM,1730846796
172,beyneu,45.3167,55.2,1.91,67,92,13.33,KZ,1730846797
173,dunedin,-45.8742,170.5036,14.14,76,6,2.54,NZ,1730846798
174,revda,56.801,59.9303,-4.43,94,100,3.82,RU,1730846799
175,westport,41.1415,-73.3579,18.82,82,0,5.14,US,1730846800
176,basco,20.4487,121.9702,25.76,84,100,17.73,PH,1730846802
177,sassandra,4.95,-6.0833,25.17,86,23,1.04,CI,1730846804
178,rocha,-34.4833,-54.3333,11.55,83,19,1.64,UY,1730846805
179,puerto baquerizo moreno,-0.9,-89.6,24.55,57,40,4.63,EC,1730846806
180,alegria,9.4669,125.5772,26.54,79,96,1.46,PH,1730846807
181,tiksi,71.6872,128.8694,-12.06,72,100,8.78,RU,1730846808
182,college,64.8569,-147.8028,-1.62,74,75,3.09,US,1730846716
183,tura,25.5198,90.2201,20.09,92,100,1.48,IN,1730846810
184,franceville,-1.6333,13.5836,21.43,98,99,0.31,GA,1730846811
185,sabha,27.0377,14.4283,17.76,49,0,4.32,LY,1730846812
186,ponta delgada,37.7333,-25.6667,21.4,94,40,11.32,PT,1730846814
187,chibougamau,49.9168,-74.3659,9.79,100,100,1.03,CA,1730846815
188,nazarabad,35.9521,50.6075,9.45,53,0,3.46,IR,1730846816
189,lompoc,34.6391,-120.4579,18.62,72,0,8.05,US,1730846646
190,kachug,53.9606,105.8817,-2.98,93,100,0.95,RU,1730846818
191,huron,41.1501,-82.5499,23.14,60,39,9.19,US,1730846819
192,shahba,32.8551,36.629,14.52,52,0,2.25,SY,1730846820
193,whitehorse,60.7161,-135.0538,-1.06,92,100,9.26,CA,1730846821
194,praia da vitoria,38.7333,-27.0667,18.14,88,40,13.18,PT,1730846823
195,shubarshi,48.5872,57.1869,-0.93,90,97,10.53,KZ,1730846824
196,pacific grove,36.6177,-121.9166,18.56,79,0,1.79,US,1730846825
197,manokwari,-0.8667,134.0833,27.7,72,93,0.86,ID,1730846826
198,laurel,39.0993,-76.8483,22.82,72,0,2.06,US,1730846827
199,ndele,8.4109,20.6473,22.11,55,2,1.3,CF,1730846828
200,tamanrasset,22.785,5.5228,18.95,27,0,1.54,DZ,1730846829
201,hithadhoo,-0.6,73.0833,27.92,71,6,2.99,MV,1730846830
202,nowshahr,36.649,51.496,12.97,100,100,2.06,IR,1730846832
203,vorgashor,67.5833,63.95,-3.78,94,100,6.76,RU,1730846833
204,sitka,57.0531,-135.33,7.94,71,100,12.35,US,1730846834
205,tazacorte,28.629,-17.9293,20.54,82,75,3.09,ES,1730846835
206,mount isa,-20.7333,139.5,31.87,37,3,3.6,AU,1730846836
207,kurmuk,10.55,34.2833,22.77,68,6,1.61,SD,1730846837
208,ribeira grande,38.5167,-28.7,19.87,75,100,11.18,PT,1730846838
209,kangundo,-1.2979,37.3471,16.59,89,52,1.7,KE,1730846839
210,princeville,45.7668,-61.2985,8.76,97,100,3.09,CA,1730846841
211,urangan,-25.3,152.9,23.74,68,18,7.04,AU,1730846842
212,kalach-na-donu,48.691,43.5264,-1.73,82,41,6.7,RU,1730846843
213,papao,-17.75,-149.55,29.82,75,63,2.67,PF,1730846844
214,fada,7.25,4.0667,21.66,75,0,0.65,NG,1730846845
215,talnakh,69.4865,88.3972,-4.93,91,100,7.9,RU,1730846846
216,saipan,15.1355,145.701,29.39,87,20,7.2,MP,1730846847
217,jiangyou,31.7667,104.7167,15.71,81,99,0.84,CN,1730846848
218,richards bay,-28.783,32.0377,16.98,79,100,9.01,ZA,1730846850
219,filey,54.21,-0.2892,9.97,39,19,2.61,GB,1730846851
220,merizo village,13.2658,144.6691,29.43,91,84,5.69,GU,1730846852
221,fortaleza,-3.7227,-38.5247,27.34,74,0,6.17,BR,1730846853
222,kolpashevo,58.3131,82.9089,-2.42,85,100,2.87,RU,1730846855
223,waat,51.1454,6.4958,6.45,95,60,2.06,DE,1730846856
224,invercargill,-46.4,168.35,16.12,63,39,1.34,NZ,1730846857
225,muynoq,43.7683,59.0214,3.67,62,11,12.2,UZ,1730846859
226,nabire,-3.3667,135.4833,27.03,79,89,0.96,ID,1730846860
227,port lincoln,-34.7333,135.8667,17.88,69,100,7.46,AU,1730846861
228,nova sintra,14.8667,-24.7167,26.37,79,0,6.35,CV,1730846862
229,nogliki,51.8333,143.1667,-4.55,66,93,4.23,RU,1730846863
230,oltu,40.5498,42.0013,-0.23,80,48,1.4,TR,1730846864
231,al kharj,24.155,47.3346,22.32,34,0,3.42,SA,1730846865
232,fauske,67.2588,15.3918,7.19,91,100,1.73,NO,1730846866
233,dzilam gonzalez,21.2833,-88.9333,26.87,77,0,2.83,MX,1730846869
234,labytnangi,66.6572,66.4183,-4.06,88,100,6.14,RU,1730846870
235,petropavlovsk-kamchatsky,53.0452,158.6483,-3.67,59,40,3.0,RU,1730846872
236,fisterra,42.9049,-9.2629,17.56,86,100,1.51,ES,1730846873
237,as samawah,31.332,45.2944,21.61,49,0,3.64,IQ,1730846874
238,saint-joseph,-21.3667,55.6167,22.21,81,69,3.88,RE,1730846876
239,la cruz,23.9167,-106.9,25.92,64,0,3.82,MX,1730846877
240,adrar,20.5022,-10.0711,27.15,16,3,4.01,MR,1730846878
241,saint-pierre,-21.3393,55.4781,22.82,78,20,5.14,RE,1730846879
242,labrador city,52.9463,-66.9114,1.77,92,100,4.12,CA,1730846880
243,mo i rana,66.3128,14.1428,6.85,94,100,0.0,NO,1730846881
244,luxor,25.6989,32.6421,20.03,42,0,2.57,EG,1730846882
245,wanxian,30.8039,108.3897,15.91,80,63,1.79,CN,1730846883
246,aasiaat,68.7098,-52.8699,-10.82,93,95,2.72,GL,1730846885
247,enewetak,11.3474,162.3373,28.64,78,71,6.75,MH,1730846886
248,san fernando de apure,7.8878,-67.4724,27.02,77,54,1.41,VE,1730846887
249,palikir - national government center,6.9248,158.1611,30.41,70,40,2.06,FM,1730846888
250,taksimo,56.3444,114.8794,-11.4,87,100,0.47,RU,1730846889
251,es castell,39.8795,4.2854,17.38,88,20,1.54,ES,1730846890
252,rikaze,29.25,88.8833,-4.12,89,53,0.83,CN,1730846891
253,tepic,21.5,-104.9,23.33,69,1,2.41,MX,1730846774
254,maragogi,-9.0122,-35.2225,24.46,72,46,3.58,BR,1730846894
255,ocher,57.8904,54.7202,-6.72,96,76,2.35,RU,1730846895
256,colonia,50.9333,6.95,6.18,89,100,2.06,DE,1730846896
257,cuajinicuilapa,16.4667,-98.4167,28.99,73,12,3.54,MX,1730846897
258,daru,-9.0763,143.2092,27.39,84,54,6.9,PG,1730846898
259,kasongo-lunda,-6.4667,16.8167,20.14,99,50,0.44,CD,1730846899
260,chonchi,-42.6128,-73.8092,11.18,90,100,3.65,CL,1730846900
261,vershino-darasunskiy,52.35,115.5167,-10.73,79,70,0.37,RU,1730846901
262,gobabis,-22.45,18.9667,16.32,16,21,4.19,NA,1730846903
263,atyrau,47.1167,51.8833,-0.99,74,75,13.0,KZ,1730846904
264,yoichi,43.2039,140.7703,4.75,67,89,1.73,JP,1730846905
265,lejanias,3.5251,-74.0216,21.82,91,97,1.52,CO,1730846906
266,zaozersk,69.4005,32.4476,3.46,82,91,11.01,RU,1730846907
267,khovd,48.0056,91.6419,1.24,58,100,0.45,MN,1730846908
268,biltine,14.5333,20.9167,24.41,24,4,6.76,TD,1730846909
269,mhango,-3.2833,32.85,20.96,76,76,1.56,TZ,1730846910
270,tual,-5.6667,132.75,28.24,80,100,5.02,ID,1730846912
271,grand falls-windsor,48.9332,-55.6649,0.38,84,98,2.77,CA,1730846913
272,hadibu,12.65,54.0333,26.18,80,8,3.16,YE,1730846914
273,hermanus,-34.4187,19.2345,13.22,75,94,6.02,ZA,1730846915
274,meadow lake,34.8014,-106.5436,12.1,41,23,3.94,US,1730846916
275,nuku'alofa,-21.1333,-175.2,25.19,83,75,5.66,TO,1730846917
276,aykhal,66.0,111.5,-7.37,95,100,2.73,RU,1730846920
277,ribadesella,43.4614,-5.0596,17.21,73,2,1.86,ES,1730846921
278,kavaratti,10.5669,72.642,27.49,75,9,1.97,IN,1730846922
279,sanger,36.708,-119.556,20.56,43,0,1.54,US,1730846923
280,bardai,11.65,7.2333,19.59,27,1,3.63,NG,1730846924
281,o rosal,41.9354,-8.8368,15.87,91,100,2.73,ES,1730846925
282,valencia,39.3333,-0.8333,15.23,74,42,1.14,ES,1730846926
283,kamina,-8.7386,24.9906,17.98,95,85,1.19,CD,1730846927
284,le mars,42.7942,-96.1656,7.91,81,0,2.57,US,1730846929
285,palu,-0.8917,119.8707,25.44,91,100,1.29,ID,1730846930
286,kapa'a,22.0752,-159.319,28.18,85,20,4.12,US,1730846931
287,yuzhno-kurilsk,44.0306,145.8556,5.81,66,100,0.91,RU,1730846932
288,akrehamn,59.2667,5.1833,8.14,87,75,5.14,NO,1730846933
289,asha,54.9973,57.2722,-0.85,91,100,3.33,RU,1730846934
290,yeppoon,-23.1333,150.7333,25.95,57,0,5.19,AU,1730846935
291,keflavik,64.0049,-22.5624,9.24,100,100,10.8,IS,1730846936
292,ingeniero jacobacci,-41.3427,-69.5448,11.33,45,100,10.95,AR,1730846938
293,buala,-8.145,159.5921,27.81,81,99,4.22,SB,1730846939
294,fortuna,40.5982,-124.1573,15.52,63,0,9.26,US,1730846940
295,mucumpiz,8.4167,-71.1333,15.38,96,80,1.31,VE,1730846941
296,tazovsky,67.4667,78.7,-5.57,93,95,7.43,RU,1730846942
297,bredasdorp,-34.5322,20.0403,12.31,79,94,2.97,ZA,1730846943
298,xiaoweizhai,26.1903,107.5125,11.25,77,1,1.54,CN,1730846944
299,dzuunharaa,48.8523,106.4579,-5.7,70,14,1.26,MN,1730846945
300,haiku-pauwela,20.9219,-156.3051,29.01,76,98,9.39,US,1730846947
301,iskateley,67.6803,53.1512,-4.33,94,50,4.53,RU,1730846948
302,alofi,-19.0595,-169.9187,24.94,78,100,6.17,NU,1730846949
303,miguel ahumada,30.6167,-106.5167,18.83,11,0,2.83,MX,1730846951
304,howrah,22.5892,88.3103,25.0,88,40,2.06,IN,1730846952
305,minchianabad,30.163,73.5685,22.64,29,0,2.05,PK,1730846953
306,shakawe,-18.3667,21.85,23.27,55,68,1.48,BW,1730846955
307,iskushuban,10.2837,50.23,23.32,79,32,2.48,SO,1730846956
308,siwa oasis,29.2041,25.5195,20.96,59,99,4.25,EG,1730846957
309,guayaramerin,-10.8368,-65.3614,29.91,49,75,1.15,BO,1730846958
310,darab,28.7519,54.5444,19.18,36,0,0.92,IR,1730846959
311,jinghong,21.991,100.7341,17.79,98,95,0.28,CN,1730846960
312,sanctuary point,-35.1114,150.629,23.81,55,14,4.94,AU,1730846961
313,altay,47.8667,88.1167,6.52,76,100,3.83,CN,1730846963
314,pekalongan,-6.8886,109.6753,25.88,84,100,1.47,ID,1730846964
315,sainte-anne-des-monts,49.124,-66.4924,5.93,100,100,1.03,CA,1730846965
316,betio village,1.358,172.9211,31.02,74,25,4.87,KI,1730846966
317,swakopmund,-22.6833,14.5333,13.88,83,4,3.13,NA,1730846967
318,namibe,-15.1961,12.1522,20.04,84,93,2.86,AO,1730846968
319,panacan,9.2463,118.4082,26.47,82,61,1.41,PH,1730846969
320,ierapetra,35.01,25.7353,17.86,60,0,4.47,GR,1730846970
321,puerto deseado,-47.7503,-65.8938,16.04,39,72,11.86,AR,1730846972
322,ulety,51.3572,112.4849,-6.42,58,71,1.44,RU,1730846973
323,salinas,36.6777,-121.6555,21.7,63,0,1.54,US,1730846974
324,wotho,10.1657,166.0102,28.68,79,27,7.99,MH,1730846975
325,remire-montjoly,4.9167,-52.2667,28.02,78,0,2.06,GF,1730846976
326,damboa,11.156,12.7576,22.05,33,38,2.48,NG,1730846977
327,live oak,36.9836,-121.9805,22.97,33,0,2.57,US,1730846978
328,banket,-17.3833,30.4,23.69,40,57,2.04,ZW,1730846979
329,inirida,3.8653,-67.9239,28.15,71,95,2.04,CO,1730846980
330,kiunga,-6.1219,141.2906,26.04,91,100,0.75,PG,1730846982
331,thurso,58.5927,-3.5259,8.14,82,30,3.74,GB,1730846983
332,corner brook,48.9667,-57.9484,3.96,98,100,2.48,CA,1730846984
333,melo,-32.3667,-54.1833,15.45,69,100,5.13,UY,1730846985
334,natal,-5.795,-35.2094,26.12,73,20,4.63,BR,1730846986
335,luderitz,-26.6481,15.1594,20.44,34,49,5.56,NA,1730846987
336,lexington,37.9887,-84.4777,24.0,61,100,6.69,US,1730846954
337,cill airne,52.05,-9.5167,14.2,99,100,1.64,IE,1730846990
338,tete,-16.1564,33.5867,29.59,40,3,2.32,MZ,1730846991
339,smithers,54.7804,-127.1743,1.18,80,100,2.57,CA,1730846703
340,coronel suarez,-37.4547,-61.9334,16.24,52,0,3.96,AR,1730846993
341,gemena,3.25,19.7667,22.22,90,14,0.9,CD,1730846994
342,nuuk,64.1835,-51.7216,-6.66,73,0,5.14,GL,1730846995
343,akureyri,65.6835,-18.0878,6.96,81,20,1.03,IS,1730846996
344,parkent,41.2944,69.6764,14.89,82,100,1.34,UZ,1730846997
345,tsiombe,-25.3,45.4833,21.93,89,4,2.97,MG,1730846999
346,turuntayevo,52.2,107.6167,-7.0,91,98,0.61,RU,1730847001
347,midvagur,62.0511,-7.1939,9.46,93,100,8.75,FO,1730847002
348,flying fish cove,-10.4217,105.6791,25.82,88,100,4.63,CX,1730847003
349,cockburn town,21.4612,-71.1419,28.22,82,11,9.71,TC,1730847004
350,inhambane,-23.865,35.3833,23.22,83,3,2.43,MZ,1730847005
351,brookings,44.3114,-96.7984,7.25,83,100,3.09,US,1730846884
352,yebaishou,41.3975,119.6408,-1.23,40,1,0.51,CN,1730847008
353,pallasovka,50.05,46.8833,-3.16,84,10,6.82,RU,1730847009
354,luwuk,-0.9516,122.7875,25.4,66,100,1.3,ID,1730847010
355,robertsport,6.7533,-11.3686,27.14,83,7,1.23,LR,1730847011
356,chimoio,-19.1164,33.4833,22.92,100,75,1.62,MZ,1730847012
357,kivioli,59.3531,26.9711,7.7,92,100,4.5,EE,1730847013
358,ivdel',60.6911,60.4206,-11.06,96,40,1.15,RU,1730847014
359,zag,46.9441,99.165,-11.53,86,20,1.4,MN,1730847015
360,aliabad,41.4822,46.6353,8.79,31,20,7.2,AZ,1730847018
361,yangambi,0.8102,24.4336,21.72,82,100,0.76,CD,1730847019
362,patnanungan,14.7833,122.1833,26.16,83,100,1.84,PH,1730847020
363,balqash,46.8481,74.995,9.53,97,100,3.83,KZ,1730847021
364,rabo de peixe,37.8,-25.5833,20.73,99,40,11.32,PT,1730847022
365,tiebo,14.6333,-16.2333,29.06,61,0,0.0,SN,1730847023
366,bambanglipuro,-7.95,110.2833,25.53,84,100,2.11,ID,1730847025
367,honiara,-9.4333,159.95,29.86,72,100,2.98,SB,1730847026
368,zelenoborskiy,66.845,32.3622,4.62,75,100,7.84,RU,1730847027
369,inza,53.8533,46.3586,-4.02,95,88,3.24,RU,1730847028
370,kismayo,-0.3582,42.5454,25.88,89,66,3.59,SO,1730847029
371,san rafael,-34.6177,-68.3301,24.81,28,1,4.0,AR,1730847030
372,san jose del guaviare,2.5729,-72.6459,27.12,72,100,0.35,CO,1730847031
373,necochea,-38.5473,-58.7368,16.14,65,0,4.75,AR,1730847032
374,besancon,47.2488,6.0182,9.62,94,69,0.71,FR,1730847034
375,ouesso,1.6136,16.0517,22.25,97,100,1.4,CG,1730847035
376,hampton bays,40.869,-72.5176,17.02,91,0,8.94,US,1730847036
377,mairi,-11.7114,-40.1489,24.78,59,97,6.99,BR,1730847037
378,alaghsas,17.0187,8.0168,22.07,19,0,6.83,NE,1730847038
379,arraial do cabo,-22.9661,-42.0278,22.98,94,0,7.72,BR,1730847039
380,northam,51.0333,-4.2167,12.56,96,71,2.84,GB,1730847040
381,brisas de zicatela,15.8369,-97.0419,28.12,83,46,5.65,MX,1730847041
382,myeik,12.4333,98.6,24.99,87,76,1.69,MM,1730847043
383,sarmiento,-45.5882,-69.07,11.55,49,13,15.58,AR,1730847044
384,manakara,-22.1333,48.0167,22.7,87,69,2.3,MG,1730847045
385,pacasmayo,-7.4006,-79.5714,19.27,83,49,5.72,PE,1730847046
386,ciudad guayana,8.3533,-62.6528,29.86,61,100,2.65,VE,1730847047
387,ujae,8.9322,165.7642,29.05,76,53,6.91,MH,1730847048
388,knyaze-volkonskoye,48.4642,135.4567,-6.81,77,54,1.61,RU,1730847049
389,lazaro cardenas,17.9583,-102.2,28.16,75,4,3.31,MX,1730847040
390,wenling,28.3669,121.36,12.74,81,0,4.89,CN,1730847052
391,magway,20.15,94.9167,22.42,93,24,1.76,MM,1730847053
392,lautoka,-17.6167,177.4667,27.92,61,40,6.69,FJ,1730847054
393,villa gesell,-37.2639,-56.973,15.55,61,0,5.04,AR,1730847055
394,siraha,26.6541,86.2087,20.47,71,9,1.05,NP,1730847056
395,chauk,20.8833,94.8167,23.96,82,10,1.91,MM,1730847057
396,olonkinbyen,70.9221,-8.7187,0.94,99,100,5.57,SJ,1730847058
397,beaufort west,-32.3567,22.583,10.94,73,100,6.72,ZA,1730847059
398,kingston,17.997,-76.7936,26.53,89,100,10.8,JM,1730847061
399,pariaman,-0.619,100.12,23.03,96,100,2.38,ID,1730847062
400,amga,60.8953,131.9608,-29.99,100,50,0.76,RU,1730847063
401,tadine,-21.55,167.8833,25.55,57,1,5.04,NC,1730847064
402,eregli,37.5133,34.0467,3.48,50,0,0.63,TR,1730847065
403,ginir,7.1333,40.7,12.97,62,32,2.87,ET,1730847066
404,kiama,-34.6833,150.8667,23.1,73,15,3.13,AU,1730847067
405,lock haven,41.137,-77.4469,16.81,77,57,1.27,US,1730847068
406,guarapari,-20.6667,-40.4975,21.17,90,100,2.18,BR,1730847070
407,simga,21.6333,81.7,19.19,63,1,1.83,IN,1730847071
408,kukawa,12.9234,13.5606,24.15,48,6,3.92,NG,1730847072
409,ash shafa,21.0694,40.3119,15.13,58,0,1.43,SA,1730847073
410,pemangkat,1.1667,108.9667,25.52,87,100,2.29,ID,1730847074
411,afaahiti,-17.75,-149.2833,25.93,84,69,4.99,PF,1730847075
412,brumado,-14.2036,-41.6653,23.41,73,97,4.08,BR,1730847076
413,cizre,37.3272,42.1903,9.56,76,0,3.6,TR,1730847077
414,nakanojomachi,36.5833,138.85,10.87,95,100,0.89,JP,1730847078
415,la passe,45.5549,-0.8967,15.26,85,48,0.17,FR,1730847080
416,la'ie,21.6477,-157.9253,27.98,91,36,1.79,US,1730847081
417,raymondville,26.4815,-97.7831,22.3,52,96,4.37,US,1730847082
418,lower hutt,-41.2167,174.9167,17.35,89,100,2.57,NZ,1730847083
419,sandpoint,48.2766,-116.5533,7.08,67,100,0.0,US,1730847084
420,amos,48.5669,-78.1162,8.85,99,100,2.84,CA,1730847085
421,sangmelima,2.9333,11.9833,19.34,90,59,0.56,CM,1730847086
422,kerikeri,-35.2268,173.9474,18.31,46,100,1.77,NZ,1730847087
423,laguna,38.421,-121.4238,21.73,26,0,10.29,US,1730847089
424,kayangel,8.0823,134.7173,28.1,75,95,1.4,PW,1730847090
425,tongliao,43.6125,122.2653,-3.88,58,0,2.62,CN,1730847091
426,manta,-0.95,-80.7333,26.88,65,40,8.23,EC,1730846870
427,along,28.1667,94.7667,12.56,80,65,0.32,IN,1730847093
428,tofol,5.3248,163.0078,29.14,69,56,4.6,FM,1730847094
429,nemuro,43.3236,145.575,6.65,66,100,0.95,JP,1730847095
430,zhuanghe,39.7008,122.9911,2.1,49,0,2.14,CN,1730847096
431,sai kung,22.3822,114.2728,24.02,63,71,2.68,CN,1730847098
432,mandera,3.9366,41.867,28.25,59,55,4.66,KE,1730847099
433,callao,-12.0667,-77.15,22.62,77,100,5.14,PE,1730846966
434,al ghayzah,16.2079,52.176,26.56,75,9,1.9,YE,1730847101
435,porto novo,6.4965,2.6036,27.9,81,0,2.0,BJ,1730847102
436,belmonte,-15.8631,-38.8828,23.17,89,100,1.57,BR,1730846936
437,debre sina,9.85,39.7667,9.36,65,49,1.15,ET,1730847104
438,arkhangel'sk,64.5401,40.5433,-2.94,100,100,3.0,RU,1730847011
439,hovd,48.0056,91.6419,1.24,58,100,0.45,MN,1730847107
440,rengasdengklok,-6.1592,107.2981,26.62,81,100,2.14,ID,1730847109
441,kill devil hills,36.0307,-75.676,20.55,77,0,2.06,US,1730847110
442,kenora,49.8167,-94.4337,5.54,75,40,1.54,CA,1730847111
443,korsakov,46.6328,142.7813,-0.09,79,93,7.97,RU,1730847112
444,greenville,35.6127,-77.3663,21.97,72,0,3.09,US,1730847113
445,mahibadhoo,3.7833,72.9667,28.05,75,100,4.25,MV,1730847114
446,vadso,70.0744,29.7487,4.09,75,20,10.8,NO,1730847116
447,mili,6.0815,171.735,29.13,76,84,8.17,MH,1730847117
448,kayyerkan,69.3786,87.7439,-4.96,93,100,10.01,RU,1730847118
449,laojunmiao,39.8333,97.7333,5.37,23,52,2.35,CN,1730847119
450,minas de matahambre,22.5887,-83.9447,25.36,90,59,3.01,CU,1730847120
451,port alfred,-33.5906,26.891,14.41,66,70,4.19,ZA,1730847121
452,gyeongsan-si,35.8233,128.7378,6.86,39,0,2.06,KR,1730847122
453,queenstown,-31.8976,26.8753,7.25,93,100,3.3,ZA,1730847123
454,galliano,29.4422,-90.2992,27.0,74,100,3.09,US,1730847125
455,happy valley-goose bay,53.3168,-60.3315,1.17,93,100,2.57,CA,1730847126
456,beberibe,-4.1797,-38.1306,26.02,78,47,6.37,BR,1730847127
457,fort mcmurray,56.7268,-111.381,-2.23,93,100,2.57,CA,1730847128
458,booue,-0.0921,11.9385,22.58,99,100,0.58,GA,1730847129
459,viedma,-40.8135,-62.9967,24.41,17,24,5.83,AR,1730847130
460,gizo,-8.103,156.8419,28.85,77,100,4.44,SB,1730847131
461,san rafael del norte,13.2125,-86.1106,19.42,93,100,1.85,NI,1730847132
462,huarmey,-10.0681,-78.1522,19.87,83,56,4.26,PE,1730847134
463,bredy,52.4153,60.3411,-3.35,92,100,5.87,RU,1730847135
464,ocean shores,46.9737,-124.1563,11.68,78,0,4.63,US,1730846967
465,mogadishu,2.0371,45.3438,26.24,85,79,5.59,SO,1730846860
466,lemvig,56.5486,8.3102,6.68,95,87,2.49,DK,1730847138
467,kuanda,56.3161,116.0806,-12.09,93,100,0.64,RU,1730847139
468,santa ana,33.7456,-117.8678,24.39,42,75,5.66,US,1730847135
469,narrabri,-30.3167,149.7833,29.18,50,34,0.45,AU,1730847141
470,kolwezi,-10.7148,25.4667,15.58,98,45,1.78,CD,1730847143
471,bhamo,24.2667,97.2333,19.63,93,100,0.78,MM,1730847144
472,iquique,-20.2208,-70.1431,17.07,78,41,0.25,CL,1730847145
473,ciudad lazaro cardenas,17.9583,-102.2,28.16,75,4,3.31,MX,1730847146
474,springs,-26.25,28.4,14.81,45,10,2.96,ZA,1730847147
475,vanino,49.0869,140.2543,-2.18,72,100,3.82,RU,1730847148
476,axim,4.8699,-2.2405,25.69,85,5,2.56,GH,1730847149
477,margate,51.3813,1.3862,10.49,83,11,2.58,GB,1730847150
478,santa elena de uairen,4.6167,-61.1333,25.65,54,94,1.25,VE,1730847152
479,oriximina,-1.7656,-55.8661,29.4,56,100,2.49,BR,1730847153
480,carauari,-4.8828,-66.8958,28.29,64,66,1.0,BR,1730847154
481,gazli,40.1333,63.45,14.65,64,79,9.61,UZ,1730847155
482,neufchateau,48.35,5.7,8.23,95,16,1.19,FR,1730847156
483,delvada,20.7667,71.0333,25.37,42,4,2.78,IN,1730847157
484,staraya mayna,54.6,48.95,-2.94,78,67,6.06,RU,1730847158
485,sant'antioco,39.0664,8.4522,16.88,81,25,1.72,IT,1730847159
486,mokshan,53.4365,44.6132,-3.54,88,99,5.44,RU,1730847160
487,moroto,2.5345,34.6666,21.4,67,86,1.62,UG,1730847162
488,horodok,49.1637,26.5839,1.3,49,53,2.22,UA,1730847163
489,ondangwa,-17.9167,15.95,30.0,35,72,3.09,NA,1730847165
490,lebu,-37.6167,-73.65,12.47,84,100,3.0,CL,1730847167
491,little falls,40.869,-74.2082,20.62,71,0,4.12,US,1730847168
492,olinda,-8.0089,-34.8553,26.85,69,75,5.14,BR,1730847170
493,el quebrachal,-25.2833,-64.0667,15.9,91,100,3.44,AR,1730847171
494,wasagu,11.3764,5.7954,20.09,31,24,2.58,NG,1730847172
495,yemel'yanovo,56.1681,92.6767,-6.55,93,0,1.0,RU,1730847173
496,puerto colombia,10.9878,-74.9547,29.05,79,47,3.4,CO,1730847174
497,badagry,6.4167,2.8833,26.01,82,0,2.52,NG,1730847175
498,kanniyakumari,8.0833,77.5667,26.48,71,79,2.54,IN,1730847176
499,betioky,-23.7167,44.3833,22.77,80,82,0.05,MG,1730847178
500,timbuktu,16.7735,-3.0074,27.64,18,0,4.14,ML,1730847179
501,thunder bay,48.4001,-89.3168,6.99,75,100,2.06,CA,1730847180
502,podgorenskiy,50.405,39.6429,-2.6,92,95,3.06,RU,1730847181
503,kalmunai,7.4167,81.8167,23.84,86,14,3.91,LK,1730847182
504,port antonio,18.18,-76.4612,25.57,94,100,6.11,JM,1730847183
505,rongelap,11.1635,166.8941,28.42,81,29,9.84,MH,1730847184
506,port macquarie,-31.4333,152.9167,22.82,84,63,1.79,AU,1730847185
507,mount pearl,47.5166,-52.7813,2.07,78,75,2.06,CA,1730847187
508,sisimiut,66.9395,-53.6735,-9.26,88,48,3.85,GL,1730847188
509,eydhafushi,5.1033,73.0708,27.11,79,91,3.14,MV,1730847189
510,abra pampa,-22.7205,-65.697,13.1,60,85,4.78,AR,1730847190
511,pingliang,35.5392,106.6861,6.69,85,91,1.21,CN,1730847191
512,saldanha,-33.0117,17.9442,14.26,65,87,5.86,ZA,1730847192
513,holyoke,42.2043,-72.6162,20.16,68,82,1.34,US,1730847193
514,vanimo,-2.6741,141.3028,29.39,71,43,0.64,PG,1730847195
515,yarovoye,52.9273,78.58,-1.15,60,76,4.0,RU,1730847197
516,crane,31.3974,-102.3501,20.99,16,0,5.28,US,1730847198
517,klaksvik,62.2266,-6.589,9.43,92,56,8.83,FO,1730847199
518,brisas barra de suchiate,14.55,-92.2167,27.88,80,98,4.74,MX,1730847200
519,bilthra,26.1231,83.8689,22.56,59,0,2.02,IN,1730847201
520,castelli,-25.9468,-60.6195,22.05,89,100,2.55,AR,1730847202
521,walvis bay,-22.9575,14.5053,13.53,88,10,2.57,NA,1730847203
522,antsiranana,-12.2787,49.2917,24.56,84,18,6.52,MG,1730847204
523,nagqu,31.5,92.0,-4.54,37,100,0.76,CN,1730847206
524,luanda,-8.8368,13.2343,26.0,78,75,2.06,AO,1730847208
525,brigantine,39.4101,-74.3646,18.11,97,0,3.6,US,1730847209
526,kyshtovka,56.555,76.6271,-2.64,81,98,2.15,RU,1730847210
527,bodo,67.28,14.405,7.65,83,100,8.23,NO,1730847211
528,sao felix do xingu,-6.6447,-51.995,23.87,81,98,0.73,BR,1730847212
529,touros,-5.1989,-35.4608,25.44,77,97,6.92,BR,1730847214
530,qamdo,31.1667,97.2333,-1.1,71,92,1.32,CN,1730847215
531,aldama,22.9167,-98.0667,26.15,46,23,6.35,MX,1730847216
532,haapajarvi,63.75,25.3333,2.1,97,31,2.38,FI,1730847217
533,naifaru,5.4444,73.3657,26.8,79,99,3.13,MV,1730847218
534,akhaltsikhe,41.639,42.9826,-1.23,89,81,1.18,GE,1730847219
535,puerto ayacucho,5.6639,-67.6236,27.77,77,85,2.05,VE,1730847220
536,kyzyl-mazhalyk,51.1333,90.6,-2.77,97,100,0.34,RU,1730847221
537,ola,59.5833,151.2833,-15.57,75,65,5.22,RU,1730847223
538,santo antonio do leverger,-15.8656,-56.0767,28.21,70,95,3.59,BR,1730847224
539,fort st. john,56.2499,-120.8529,1.94,69,20,4.12,CA,1730847225
540,bengkulu,-3.8004,102.2655,24.32,90,99,2.16,ID,1730847226
541,wenchang,30.904,118.4887,10.21,80,0,2.57,CN,1730847227
542,san vicente de canete,-13.0751,-76.3835,18.55,85,13,2.42,PE,1730847228
543,varadero,23.1536,-81.2514,28.42,88,86,8.29,CU,1730847103
544,ta`u,-14.2336,-169.5144,25.3,88,100,8.51,AS,1730847230
545,paphos,34.7667,32.4167,17.88,82,0,3.09,CY,1730847232
546,hitzacker,53.1525,11.0442,5.73,92,100,0.97,DE,1730847233
547,sao jose da coroa grande,-8.8978,-35.1478,24.89,72,44,4.11,BR,1730847234
548,choele choel,-39.2667,-65.6833,26.69,12,89,9.42,AR,1730847235
549,calvinia,-31.4707,19.776,12.51,51,82,7.84,ZA,1730847236
550,santiago de cuba,20.0247,-75.8219,27.06,83,100,8.23,CU,1730847237
551,hammerfest,70.6634,23.6821,5.25,81,75,7.2,NO,1730847238
552,sinabang,2.4803,96.3801,25.43,83,99,1.83,ID,1730847239
553,mukalla,14.5425,49.1242,25.97,70,0,1.63,YE,1730847241
554,capao da canoa,-29.7456,-50.0097,21.35,97,96,1.34,BR,1730847242
555,oyon,-10.6681,-76.7731,1.67,99,100,1.64,PE,1730847243
556,kosong,38.3788,128.4676,6.16,71,18,2.68,KR,1730847244
557,menongue,-14.6585,17.691,18.37,87,97,1.3,AO,1730847245
558,mar del plata,-38.0023,-57.5575,19.01,59,0,4.63,AR,1730847049
559,akdepe,42.0551,59.3788,5.67,54,40,8.28,TM,1730847249
560,quepos,9.4236,-84.1652,24.1,92,100,2.04,CR,1730847250
561,tulun,54.5611,100.5792,-3.4,96,100,0.36,RU,1730847251
